code,name,lat,lon
967,אבו גווייעד שבט,,
472,אבו גוש,31.806291,35.109195
473,אבו סנאן,32.958029,35.17197
958,אבו עבדון שבט,31.302815,34.842593
968,אבו קורינאת שבט,31.103114,34.952004
1342,אבו קרינאת יישוב,,
966,אבו רובייעה שבט,,
961,אבו רוקייק שבט,31.259539,34.863898
1375,אבו תלול,,
652,אבטין,32.759962,35.114603
1275,אבטליון,32.83578,35.350443
679,אביאל,32.531345,34.993494
1115,אביבים,33.08938,35.47034
819,אביגדור,31.7119,34.740371
175,אביחיל,32.350707,34.871231
2052,אביטל,31.88962,35.022604
1070,אביעזר,31.681995,35.018823
1220,אבירים,33.038085,35.286046
182,אבן יהודה,32.276647,34.885089
1081,אבן מנחם,33.075142,35.29522
783,אבן ספיר,31.762499,35.134993
400,אבן שמואל,31.809997,35.195002
4011,אבני איתן,32.825618,35.766802
3793,אבני חפץ,32.284627,35.074553
1311,אבשלום,31.195395,34.331201
3759,אדורה,31.552218,35.017635
113,אדירים,31.652752,35.23263
1068,אדמית,33.078842,35.209512
1123,אדרת,31.659714,34.994441
446,אודים,32.266864,34.846996
4010,אודם,31.737287,35.18109
1046,אוהד,31.877566,35.126954
2710,אום אלפחם,,
2024,אום אלקוטוף,,
1358,אום בטין,31.281259,34.884031
1108,אומן,48.752611,30.217967
680,אומץ,32.369215,34.99313
31,אופקים,31.311336,34.622825
1294,אור הגנוז,33.005182,35.446738
67,אור הנר,31.556196,34.602307
2400,אור יהודה,32.029747,34.856174
1020,אור עקיבא,32.509964,34.920395
780,אורה,31.752108,35.150166
2012,אורות,31.740363,34.735601
4013,אורטל,33.086235,35.758662
403,אורים,31.304093,34.524869
3760,אורנית,32.131923,34.990812
278,אושה,32.796457,35.114585
565,אזור,32.029557,34.79965
1157,אחווה,31.753934,35.309725
821,אחוזם,31.552681,34.770152
1330,אחוזת ברק,32.6431,35.338895
785,אחיהוד,32.907404,35.171717
850,אחיטוב,32.3877,34.990828
804,אחיסמך,31.931905,34.908577
797,אחיעזר,31.98167,34.871822
965,אטרש שבט,31.28122,34.912372
338,איבים,31.5335972,34.6096972
716,אייל,32.21071,34.978261
77,איילת השחר,33.021114,35.576734
294,אילון,33.062525,35.219164
1126,אילות,32.104201,35.183045
49,אילניה,32.753907,35.40819
2600,אילת,29.557668,34.951926
1336,אירוס,,
3762,איתמר,32.173868,35.30803
37,איתן,31.854322,35.214125
478,אכסאל,32.682084,35.320745
1359,אל סייד,,
1316,אלעריאן,,
4003,אלרום,,
1145,אלומה,31.65204,34.742874
330,אלומות,32.706627,35.546089
1182,אלון הגליל,32.756873,35.220295
3579,אלון מורה,32.234417,35.331203
3604,אלון שבות,31.65487,35.125257
429,אלוני אבא,32.730944,35.17203
4017,אלוני הבשן,33.044086,35.838509
868,אלוני יצחק,32.5099972,35.0052
285,אלונים,32.721458,35.143401
4002,אליעד,,
1365,אליאב,,
41,אליכין,32.407658,34.925029
1248,אליפז,29.796247,35.012095
730,אליפלט,32.947833,35.548518
682,אליקים,32.633344,35.067615
204,אלישיב,32.380195,34.909946
841,אלישמע,32.154777,34.930463
1125,אלמגור,32.912708,35.602312
3556,אלמוג,31.728415,35.190167
1309,אלעד,32.049529,34.950751
3618,אלעזר,31.659674,35.143075
3750,אלפי מנשה,32.17063,35.014859
603,אלקוש,33.034293,35.326349
3560,אלקנה,32.057858,35.257676
772,אמונים,31.743884,34.674493
1064,אמירים,32.93735,35.450366
1253,אמנון,32.904988,35.571138
23,אמציה,31.531175,34.914465
4012,אניעם,32.956637,35.73972
960,אסד שבט,31.332163,34.860439
3754,אספר,31.586151,35.187596
529,אעבלין,32.821799,35.190122
963,אעצם שבט,31.295815,34.903104
4301,אפיק,32.779427,35.702996
176,אפיקים,32.680563,35.577732
313,אפק,32.838315,35.127781
3650,אפרת,,
701,ארבל,32.171995,35.010681
3598,ארגמן,32.173339,35.522287
714,ארז,31.559838,34.56489
3570,אריאל,32.104636,35.174515
1324,ארסוף,32.212839,34.815979
71,אשבול,31.83197,35.29536
70,אשדוד,31.80438,34.655316
199,אשדות יעקב איחוד,32.658769,35.579639
188,אשדות יעקב מאוחד,32.664807,35.58277
1188,אשחר,32.885083,35.299623
3722,אשכולות,31.39117,34.904857
2021,אשל הנשיא,31.3268278,34.6974972
1152,אשלים,30.964244,34.699675
7100,אשקלון,31.665944,34.559466
1256,אשרת,32.971645,35.155702
740,אשתאול,31.780384,35.010104
6000,באקה אלגרביה,,
21,באר אורה,29.710255,34.988523
1376,באר גנים,,
155,באר טוביה,31.737125,34.725572
2530,באר יעקב,31.943506,34.839041
1278,באר מילכה,,
9000,באר שבע,31.252972,34.791464
450,בארות יצחק,32.042024,34.910223
697,בארותיים,32.321038,34.983431
399,בארי,41.1259135,16.8721133
559,בוסתן הגליל,32.948635,35.080689
482,בועיינהנוגידאת,,
4001,בוקעאתא,33.203064,35.779199
698,בורגתה,32.325971,34.96385
2043,בחן,32.35183,35.018543
762,בטחה,31.333868,34.63432
234,ביצרון,31.795405,34.729111
998,ביר אלמכסור,,
1348,ביר הדאג,,
368,ביריה,32.978107,35.503097
317,בית אורן,32.7316,35.006321
3574,בית אל,,
562,בית אלעזרי,31.844716,34.806628
95,בית אלפא,32.516356,35.430501
3652,בית אריה,32.040058,35.049473
480,בית גן,32.711009,35.496507
619,בית גוברין,31.612878,34.89557
571,בית גמליאל,31.856127,34.760949
466,בית דגן,32.000085,34.832164
723,בית הגדי,31.422838,34.60788
373,בית הלוי,32.351595,34.930445
322,בית הלל,33.208781,35.606517
572,בית העמק,32.970682,35.144847
3645,בית הערבה,31.807761,35.476413
242,בית השיטה,32.550873,35.439353
353,בית זיד,32.702413,35.13111
710,בית זית,31.783057,35.161118
143,בית זרע,32.689295,35.574063
3575,בית חורון,31.879889,35.124099
877,בית חירות,32.314725,34.897156
2033,בית חלקיה,31.793,34.8097
159,בית חנן,31.93521,34.775597
800,בית חנניה,32.529503,34.926736
1050,בית חשמונאי,31.890297,34.9176
288,בית יהושע,32.262074,34.86542
265,בית יוסף,31.928379,35.021339
200,בית ינאי,32.381728,34.863509
326,בית יצחקשער חפר,,
430,בית לחם הגלילית,32.734557,35.191272
751,בית מאיר,31.794785,35.036755
784,בית נחמיה,31.977141,34.953837
16,בית ניר,31.647626,34.873109
672,בית נקופה,31.804391,35.126878
202,בית עובד,31.921286,34.774906
301,בית עוזיאל,31.870049,34.90486
756,בית עזרא,31.736401,34.657515
604,בית עריף,31.995351,34.935105
212,בית צבי,32.719322,34.969509
598,בית קמה,31.446565,34.762249
365,בית קשת,32.718445,35.394954
848,בית רבן,31.8175,34.7288889
1162,בית רימון,32.781844,35.32774
9200,בית שאן,32.497102,35.497337
2610,בית שמש,31.74704,34.9881
248,בית שערים,32.703756,35.129934
747,בית שקמה,31.637734,34.610075
252,ביתן אהרן,32.364927,34.869561
3780,ביתר עילית,31.693492,35.118037
94,בלפוריה,32.629987,35.296282
760,בן זכאי,31.857222,34.727434
712,בן עמי,33.005368,35.122219
1084,בן שמן כפר נוער,,
2013,בן שמן מושב,31.9536,34.920981
6100,בני ברק,32.084931,34.835228
1368,בני דקלים,,
592,בני דרום,31.820869,34.691611
386,בני דרור,32.261794,34.901793
4015,בני יהודה,32.798261,35.691072
1363,בני נצרים,,
448,בני עטרות,32.021469,34.910147
1066,בני עיש,31.790234,34.759293
418,בני ציון,32.219838,34.86838
588,בני ראם,31.769971,34.790464
685,בניה,31.843443,34.751794
9800,בנימינהגבעת עדה,,
1326,בסמה,32.5294,35.103201
944,בסמת טבעון,32.736286,35.153202
483,בענה,32.929537,35.271919
389,בצרה,32.21454,34.878124
589,בצת,33.070046,35.132637
864,בקוע,31.827898,34.924734
3612,בקעות,32.242069,35.452637
823,בר גיורא,31.729682,35.073415
1191,בר יוחאי,32.997703,35.448192
3744,ברוכין,,
428,ברור חיל,31.556984,34.646548
2060,ברוש,31.920403,35.014586
3710,ברכה,32.224986,35.163675
746,ברכיה,31.668046,34.624297
667,ברעם,33.058978,35.433236
141,ברק,32.106471,35.187525
617,ברקאי,32.476095,35.031045
3654,ברקן,32.10855,35.112725
2038,ברקת,31.80852,35.163888
1323,בת הדר,31.648124,34.597147
1361,בת חן,,
1319,בת חפר,32.333713,35.01373
6200,בת ים,32.013185,34.748021
3794,בת עין,31.657652,35.101103
33,בת שלמה,32.600334,35.003839
1292,גדיידהמכר,,
485,גולס,,
627,גלגוליה,,
976,גנאביב שבט,,
541,גסר אזרקא,,
487,גש גוש חלב,,
628,גת,31.627795,34.794114
872,גאולי תימן,32.391836,34.90099
379,גאולים,32.296486,34.943864
853,גאליה,31.885643,34.765352
352,גבולות,31.211166,34.466201
424,גבים,31.506272,34.59895
86,גבע,32.566529,35.372161
3763,גבע בנימין,31.849998,35.273854
683,גבע כרמל,32.662162,34.954079
2014,גבעולים,31.397603,34.593823
3644,גבעון החדשה,31.848895,35.159031
1344,גבעות בר,31.357208,34.755543
1293,גבעת אבני,32.775381,35.436156
1288,גבעת אלה,32.722006,35.244824
147,גבעת ברנר,31.866609,34.802256
870,גבעת השלושה,32.096339,34.92063
3730,גבעת זאב,31.861188,35.167253
207,גבעת חן,32.167578,34.875515
2018,גבעת חיים איחוד,32.396744,34.93298
173,גבעת חיים מאוחד,32.392147,34.929449
4021,גבעת יואב,32.801216,35.680913
787,גבעת יערים,31.786087,35.092771
919,גבעת ישעיהו,31.671679,34.94374
802,גבעת כח,32.03209,34.938798
360,גבעת נילי,32.549042,35.041195
703,גבעת עוז,32.555933,35.198005
681,גבעת שמואל,32.077298,34.849208
1077,גבעת שפירא,32.357628,34.875846
793,גבעתי,31.733137,34.67948
6300,גבעתיים,32.072175,34.808873
342,גברעם,31.59146,34.612158
133,גבת,32.676559,35.213153
35,גדות,33.018207,35.619549
145,גדיש,32.558843,35.244432
442,גדעונה,32.549926,35.359204
2550,גדרה,31.81753,34.785103
852,גונן,33.123563,35.647702
755,גורן,33.055565,35.23362
1219,גורנות הגליל,33.059286,35.249671
457,גזית,32.639306,35.446241
370,גזר,31.876348,34.921111
706,גיאה,31.628466,34.602679
196,גיבתון,31.888317,34.799062
1043,גיזו,31.805583,34.939654
1204,גילון,32.904337,35.232193
736,גילת,31.32632,34.648935
262,גינוסר,32.848665,35.523154
92,גיניגר,32.663418,35.259862
863,גינתון,31.962799,34.913063
1206,גיתה,32.967232,35.249127
3613,גיתית,32.100272,35.395444
393,גלאון,31.63337,34.8489
3606,גלגל,32.000015,35.444644
346,גליל ים,32.158796,34.831878
369,גלעד אבן יצחק,,
745,גמזו,31.927216,34.941129
1072,גן הדרום,31.804055,34.699871
225,גן השומרון,32.465006,34.999049
239,גן חיים,32.19576,34.906959
734,גן יאשיה,32.349486,34.996247
166,גן יבנה,31.783055,34.703103
1274,גן נר,32.528705,35.336255
311,גן שורק,31.94401,34.758323
144,גן שלמה,31.878776,34.798903
72,גן שמואל,32.45291,34.949313
836,גנות,32.018203,34.825879
549,גנות הדר,32.321739,34.900716
1103,גני הדר,31.878923,34.854029
1371,גני טל,31.850733,35.035545
862,גני יוחנן,31.859923,34.840829
3823,גני מודיעין,,
218,גני עם,32.149837,34.90336
229,גני תקווה,32.060496,34.873123
842,געש,32.228476,34.824413
463,געתון,33.006074,35.213833
39,גפן,32.199587,35.007825
1129,גרופית,29.941615,35.064692
4022,גשור,32.81994,35.71571
305,גשר,32.621204,35.550378
574,גשר הזיו,33.040531,35.110565
340,גת קיבוץ,,
128,גת רימון,32.068104,34.881364
494,דאלית אלכרמל,,
146,דבורה,32.552894,35.263855
489,דבוריה,32.694119,35.368515
849,דבירה,31.411697,34.825178
407,דברת,32.646728,35.350087
62,דגניה א,32.706937,35.575064
79,דגניה ב,32.699069,35.577552
1067,דובב,33.050799,35.407749
3747,דולב,31.926248,35.133592
738,דור,32.607801,34.923317
336,דורות,31.507206,34.645727
475,דחי,32.62249,35.343605
490,דייר אלאסד,,
492,דייר חנא,32.862315,35.365254
2200,דימונה,31.069418,35.033364
2063,דישון,33.082317,35.517573
300,דליה,32.589249,35.076967
431,דלתון,33.016552,35.489912
1317,דמיידה,32.817187,35.228533
303,דן,32.164638,35.069206
302,דפנה,32.12204,35.03167
1241,דקל,31.195907,34.346772
1349,דריגאת,,
702,האון,32.726747,35.622667
675,הבונים,32.636585,34.932706
356,הגושרים,33.221484,35.62303
191,הדר עם,32.349652,34.898946
9700,הוד השרון,32.155693,34.893597
726,הודיה,31.676355,34.639277
1169,הוואשלה שבט,31.092225,34.97907
956,הוזייל שבט,31.414486,34.761873
1186,הושעיה,32.757926,35.295226
250,הזורע,32.644515,35.119181
307,הזורעים,32.748139,35.499924
434,החותרים,32.75231,34.957547
684,היוגב,32.612752,35.207485
1208,הילה,33.036174,35.244584
377,המעפיל,32.378034,34.983147
677,הסוללים,32.751801,35.238024
423,העוגן,32.360436,34.92334
3769,הר אדר,31.8245,35.129662
3603,הר גילה,31.722057,35.171493
1261,הר עמשא,31.342716,35.101601
464,הראל,31.826026,35.130184
1249,הרדוף,32.104475,35.104166
6400,הרצליה,32.162412,34.844677
1203,הררית,32.845695,35.369258
3639,ורד יריחו,31.826191,35.43214
1133,ורדון,31.663822,34.781767
815,זבדיאל,31.657558,34.759338
44,זוהר,31.595591,34.692364
584,זיקים,31.607202,34.52097
788,זיתן,31.975177,34.891733
9300,זכרון יעקב,32.573904,34.951979
799,זכריה,31.708811,34.944709
1290,זמר,32.365683,35.034652
1065,זמרת,31.447852,34.552289
816,זנוח,31.733811,34.99937
2064,זרועה,31.459132,34.624162
975,זרזיר,32.72329,35.220438
818,זרחיה,31.681741,34.746421
1321,חואלד,,
235,חבצלת השרון,32.360399,34.86182
1110,חבר,31.861803,35.177705
3400,חברון,41.3186482,-87.2003091
717,חגור,32.13859,34.947615
3764,חגי,31.492529,35.079538
205,חגלה,32.389069,34.924253
4026,חדנס,,
618,חדיד,31.969428,34.932158
6500,חדרה,32.442784,34.92088
160,חולדה,31.832149,34.881525
6600,חולון,32.015832,34.787386
1239,חולית,31.794446,35.337717
253,חולתה,33.05285,35.609246
662,חוסן,32.997698,35.298725
1332,חוסנייה,32.900572,35.322509
115,חופית,32.386081,34.874079
374,חוקוק,32.87863,35.496656
1303,חורה,31.300398,34.93569
496,חורפיש,33.016687,35.347108
355,חורשים,32.137874,34.971022
1047,חזון,32.906579,35.395293
219,חיבת ציון,32.397994,34.911932
3643,חיננית,32.48089,35.173183
4000,חיפה,32.83036,34.974339
162,חירות,32.314725,34.897156
1272,חלוץ,32.95127,35.311105
820,חלץ,31.577939,34.658393
993,חמאם,32.828398,35.491722
801,חמד,32.017991,34.841266
343,חמדיה,32.519772,35.52057
3646,חמדת,32.252027,35.526845
3609,חמרה,32.199687,35.437351
807,חניאל,32.332802,34.947695
280,חניתה,33.087633,35.173431
1257,חנתון,32.78305,35.245065
4005,חספין,32.845056,35.78875
363,חפץ חיים,31.931552,35.044223
90,חפציבה,,
700,חצב,31.780094,34.770573
13,חצבה,30.767941,35.278499
2034,חצור הגלילית,32.980381,35.54355
406,חצוראשדוד,,
397,חצרים,31.240602,34.717429
422,חרב לאת,32.403525,34.917148
1024,חרוצים,32.227709,34.864774
1247,חריש,,
3717,חרמש,32.423725,35.118995
1209,חרשים,32.957736,35.328218
3770,חשמונאים,31.93263,35.023271
6700,טבריה,32.795858,35.530975
962,טובאזנגריה,,
498,טורעאן,32.775136,35.378345
2730,טייבה,32.266891,35.009676
497,טייבה בעמק,32.266891,35.009676
2720,טירה,31.869947,35.125588
663,טירת יהודה,32.014832,34.935879
2100,טירת כרמל,32.762126,34.972982
268,טירת צבי,32.422485,35.528321
462,טל שחר,31.804402,34.903273
1181,טלאל,,
1177,טללים,30.99151,34.771262
3788,טלמון,31.939474,35.133132
8900,טמרה,32.852246,35.201317
547,טמרה יזרעאל,32.634917,35.402701
3743,טנא,31.376131,34.957384
1214,טפחות,32.868561,35.422206
1295,יאנוחגת,,
1232,יבול,31.189457,34.318953
46,יבנאל,32.708764,35.503779
2660,יבנה,31.877957,34.73945
96,יגור,32.741531,35.076827
798,יגל,31.987791,34.880263
577,יד בנימין,31.796684,34.820372
1134,יד השמונה,31.809549,35.089619
758,יד חנה,32.32531,35.006693
358,יד מרדכי,31.586961,34.557502
775,יד נתן,31.652959,34.704875
64,יד רמבם,31.89984,34.900088
9400,יהודמונוסון,,
1158,יהל,30.084233,35.128395
2009,יובל,33.246576,35.597065
1226,יובלים,31.885668,35.031866
1112,יודפת,32.836595,35.271483
4007,יונתן,32.939659,35.79547
803,יושיביה,31.444698,34.608786
452,יזרעאל,32.562588,35.319426
409,יחיעם,32.996109,35.221093
866,יטבתה,29.89632,35.059229
3607,ייטב,31.947214,35.422377
811,יכיני,31.482204,34.598635
753,ינוב,32.30743,34.951386
2011,ינון,31.74183,34.780949
29,יסוד המעלה,33.053579,35.589015
440,יסודות,31.815834,34.865637
575,יסעור,32.901144,35.166643
1138,יעד,32.881224,35.240641
1044,יעף,32.268253,34.967427
795,יערה,33.068012,35.186082
499,יפיע,32.695001,35.282012
3566,יפית,32.062686,35.474318
134,יפעת,32.675852,35.223984
453,יפתח,33.128345,35.552032
3749,יצהר,31.738445,35.189187
759,יציץ,31.863225,34.861905
417,יקום,32.249195,34.841904
3647,יקיר,32.14983,35.114633
241,יקנעם מושבה,32.660224,35.104608
240,יקנעם עילית,32.660224,35.104608
623,יראון,33.077238,35.454292
2026,ירדנה,32.565356,35.565979
831,ירוחם,30.987803,34.929743
3000,ירושלים,31.768318,35.213711
718,ירחיב,32.151535,34.967993
502,ירכא,32.953491,35.211992
183,ירקונה,32.144523,34.897884
916,ישע,31.247594,34.403092
805,ישעי,31.752968,34.962587
828,ישרש,31.915666,34.847338
1227,יתד,31.207041,34.326127
504,כאבול,32.867506,35.213356
505,כאוכב אבו אלהיגא,,
576,כברי,33.020984,35.147008
1338,כדיתה,,
3564,כוכב השחר,31.960263,35.349422
1224,כוכב יאיר,32.220921,34.992407
3779,כוכב יעקב,31.880151,35.242774
824,כוכב מיכאל,31.631481,34.667796
1252,כורזים,32.911111,35.550152
1210,כחל,32.890464,35.511573
1367,כחלה,,
840,כיסופים,31.374544,34.398993
1153,כישור,32.94665,35.250215
1183,כליל,32.983566,35.199674
1229,כלנית,31.564376,35.031388
1331,כמאנה,32.90931,35.33693
1291,כמהין,30.910326,34.430726
1201,כמון,32.909118,35.360918
4028,כנף,32.870411,35.697899
63,כנרת מושבה,,
57,כנרת קבוצה,,
1059,כסיפה,31.249245,35.083682
859,כסלון,31.774261,35.048172
1296,כסראסמיע,,
978,כעביהטבאשחגאגרה,,
857,כפר אביב,31.831038,34.722579
3638,כפר אדומים,31.827215,35.337191
364,כפר אוריה,31.793398,34.944758
690,כפר אחים,31.745863,34.755933
220,כפר ביאליק,32.821375,35.087751
177,כפר בילו,31.870474,34.826735
357,כפר בלום,33.172526,35.607939
2010,כפר בן נון,31.861678,34.947192
633,כפר ברא,32.13091,34.97011
132,כפר ברוך,32.646047,35.19308
106,כפר גדעון,32.644578,35.289279
427,כפר גלים,32.7661111,34.9594444
310,כפר גליקסון,32.505823,35.003542
76,כפר גלעדי,33.242077,35.574144
707,כפר דניאל,31.93352,34.932308
3796,כפר האורנים,32.211473,34.900069
192,כפר החורש,32.701548,35.272957
254,כפר המכבי,32.791803,35.114794
582,כפר הנגיד,31.887133,34.748726
443,כפר הנשיא,32.974659,35.60231
187,כפר הס,32.24772,34.935138
217,כפר הראה,32.391036,34.910919
888,כפר הריף,31.747028,34.79093
190,כפר ויתקין,32.38054,34.875309
320,כפר ורבורג,31.718746,34.728682
1263,כפר ורדים,32.995087,35.269103
786,כפר זיתים,32.811613,35.465166
696,כפר חבד,31.990143,34.849104
609,כפר חושן,33.0123306,35.4414889
255,כפר חיטים,32.799997,35.503281
193,כפר חיים,32.353856,34.900711
1297,כפר חנניה,32.915992,35.423786
112,כפר חסידים א,32.748649,35.089977
889,כפר חסידים ב,32.748649,35.089977
4004,כפר חרוב,32.762356,35.664182
673,כפר טרומן,31.980491,34.927697
507,כפר יאסיף,32.956361,35.165467
233,כפר ידידיה,32.344901,34.89904
140,כפר יהושע,32.681638,35.151978
168,כפר יונה,32.317718,34.933616
85,כפר יחזקאל,32.566948,35.36089
170,כפר יעבץ,32.273943,34.965464
508,כפר כמא,32.721104,35.442836
509,כפר כנא,32.744998,35.33976
387,כפר מונש,32.345606,34.916427
1095,כפר מימון,31.4314,34.537182
98,כפר מלל,32.167566,34.894746
510,כפר מנדא,32.812359,35.258615
274,כפר מנחם,31.732076,34.835081
297,כפר מסריק,32.891217,35.098416
512,כפר מצר,32.64737,35.421552
764,כפר מרדכי,31.831503,34.756644
316,כפר נטר,32.272007,34.873588
345,כפר סאלד,33.196034,35.657995
6900,כפר סבא,32.178194,34.907612
107,כפר סילבר,31.6755556,34.6122222
249,כפר סירקין,32.076683,34.922765
845,כפר עזה,31.483415,34.532293
3488,כפר עציון,31.649485,35.115235
189,כפר פינס,32.482716,35.002064
634,כפר קאסם,32.114092,34.972768
388,כפר קיש,32.666086,35.448951
654,כפר קרע,32.505517,35.054252
579,כפר ראש הנקרה,33.086089,35.113456
1130,כפר רוזנואלד זרעית,,
295,כפר רופין,32.457548,35.555675
1166,כפר רות,31.910377,35.035311
605,כפר שמאי,32.955697,35.457917
743,כפר שמואל,31.888257,34.934821
267,כפר שמריהו,32.187122,34.823125
47,כפר תבור,32.687345,35.419974
3572,כפר תפוח,32.117972,35.24983
1285,כרכום,32.173245,35.016022
664,כרם בן זמרה,33.039223,35.46989
1094,כרם יבנה ישיבה,,
580,כרם מהרל,32.644324,34.991451
1085,כרם שלום,31.22828,34.28456
1264,כרמי יוסף,31.848023,34.921349
3766,כרמי צור,31.609467,35.101274
1374,כרמי קטיף,,
1139,כרמיאל,32.91467,35.292418
768,כרמיה,31.602694,34.540415
1198,כרמים,31.333463,34.91788
3656,כרמל,32.809659,34.974208
1207,לבון,32.941179,35.286476
585,לביא,32.787647,35.440719
1230,לבנים,32.863789,35.49748
2023,להב,31.379362,34.871313
380,להבות הבשן,33.141386,35.645097
715,להבות חביבה,32.395215,35.011791
1271,להבים,31.373834,34.816953
7000,לוד,31.951012,34.888076
52,לוזית,31.688208,34.888223
595,לוחמי הגיטאות,32.96266,35.096742
1171,לוטם,32.172917,35.018022
1255,לוטן,29.988262,35.086778
674,לימן,33.058731,35.111817
24,לכיש,31.560906,34.844091
1310,לפיד,31.917521,35.032192
1173,לפידות,32.9598,35.260958
1060,לקיה,31.324882,34.866221
2055,מאור,32.425831,35.00529
102,מאיר שפיה,32.592463,34.971101
771,מבוא ביתר,31.722591,35.106658
3569,מבוא דותן,32.420771,35.173871
3709,מבוא חורון,31.849597,35.034978
4204,מבוא חמה,32.7367,35.655208
1141,מבוא מודיעים,31.93385,34.988001
1080,מבועים,31.449449,34.654996
829,מבטחים,31.242422,34.407489
573,מבקיעים,31.622517,34.577432
1015,מבשרת ציון,31.804051,35.157893
516,מגד אלכרום,,
4201,מגדל שמס,,
481,מגאר,32.890703,35.404612
689,מגדים,32.727733,34.960924
65,מגדל,32.839493,35.499851
874,מגדל העמק,32.6735,35.243446
3561,מגדל עוז,31.640931,35.143141
3751,מגדלים,32.089865,35.342635
586,מגידו,32.577898,35.179974
375,מגל,32.385555,35.036148
695,מגן,31.298107,34.427061
1155,מגן שאול,32.52147,35.306432
722,מגשימים,32.044362,34.899836
2029,מדרך עוז,32.594647,35.157978
1140,מדרשת בן גוריון,30.8522972,34.7834
3797,מודיעין עילית,31.932476,35.042266
1200,מודיעיןמכביםרעות,,
269,מולדת,32.586195,35.438942
208,מוצא עילית,31.793589,35.157002
635,מוקייבלה,32.514141,35.294807
1163,מורן,32.104527,35.105681
1178,מורשת,32.826131,35.231999
606,מזור,32.050697,34.931374
28,מזכרת בתיה,31.853165,34.842422
104,מזרע,32.649878,35.286405
517,מזרעה,32.983651,35.098936
3599,מחולה,32.365284,35.516022
1411,מחנה הילה,31.792287,35.172736
1418,מחנה טלי,,
1413,מחנה יהודית,31.658015,35.144222
1416,מחנה יוכבד,31.757323,35.219943
1415,מחנה יפה,31.785859,35.210384
1414,מחנה מרים,32.297822,34.858133
1412,מחנה תל נוף,32.090361,34.774088
308,מחניים,32.988844,35.570377
776,מחסיה,31.748857,35.007262
43,מטולה,33.277231,35.578237
822,מטע,31.71652,35.060573
1128,מי עמי,32.504962,35.146426
2054,מיטב,32.545508,35.3009
649,מייסר,32.445245,35.042132
4019,מיצר,32.76864,35.736358
1282,מירב,32.45204,35.42248
607,מירון,32.985225,35.441644
731,מישר,31.815934,34.752589
1268,מיתר,31.32701,34.943215
3614,מכורה,32.164158,35.423625
1343,מכחול,,
382,מכמורת,32.406503,34.871552
1202,מכמנים,32.905864,35.328992
164,מלאה,32.563148,35.237529
2044,מלילות,31.389896,34.595244
596,מלכיה,33.098588,35.509626
2030,מנוחה,31.656158,34.777274
1174,מנוף,32.853257,35.237357
1205,מנות,33.038708,35.195158
48,מנחמיה,32.664332,35.555339
347,מנרה,-4.4534624,-171.2463763
994,מנשית זבדה,32.706218,35.192417
1258,מסד,32.844171,35.423168
263,מסדה,32.682304,35.597658
298,מסילות,32.497361,35.474653
742,מסילת ציון,31.801448,35.009464
748,מסלול,31.323676,34.590762
4203,מסעדה,33.231049,35.756291
939,מסעודין אלעזאזמה,,
197,מעברות,32.364196,34.905735
1082,מעגלים,31.398857,34.59824
678,מעגן,32.706343,35.600576
694,מעגן מיכאל,32.558709,34.917818
272,מעוז חיים,32.494069,35.550769
3657,מעון,31.414591,35.163895
570,מעונה,33.016893,35.263628
9999,מעטפות חיצוניות,,
518,מעיליא,33.027193,35.256306
416,מעין ברוך,33.239348,35.60936
290,מעין צבי,32.568483,34.940625
3616,מעלה אדומים,31.777368,35.297957
3608,מעלה אפרים,32.071303,35.403901
1127,מעלה גלבוע,32.476064,35.420639
4008,מעלה גמלא,32.888255,35.685968
286,מעלה החמישה,31.819022,35.111238
3752,מעלה לבונה,32.054435,35.239504
3651,מעלה מכמש,31.87913,35.305904
1327,מעלה עירון,32.554127,35.182501
3653,מעלה עמוס,31.596885,35.229367
1063,מעלותתרשיחא,,
344,מענית,32.457991,35.026574
230,מעש,32.06351,34.892641
668,מפלסים,31.502205,34.561676
3745,מצדות יהודה,31.365585,35.111341
325,מצובה,33.062311,35.155707
757,מצליח,31.906363,34.871279
58,מצפה,31.856771,35.167479
1222,מצפה אביב,32.83795,35.201061
1370,מצפה אילן,,
3576,מצפה יריחו,31.815687,35.39541
1190,מצפה נטופה,32.801747,35.383502
99,מצפה רמון,30.610202,34.801899
3610,מצפה שלם,31.568874,35.400369
648,מצר,32.440185,35.047703
22,מקווה ישראל,31.797542,35.224692
843,מרגליות,33.216473,35.544355
4101,מרום גולן,33.132582,35.777072
1340,מרחב עם,30.888021,34.828177
97,מרחביה מושב,32.603272,35.314745
66,מרחביה קיבוץ,32.605822,35.307385
1098,מרכז שפירא,31.696926,34.70732
421,משאבי שדה,31.004041,34.78503
765,משגב דב,31.819053,34.739163
378,משגב עם,33.247571,35.548501
520,משהד,32.738911,35.322495
3605,משואה,32.071818,35.403783
620,משואות יצחק,31.702609,34.68997
3785,משכיות,,
670,משמר איילון,31.872477,34.943255
563,משמר דוד,31.823557,34.900678
732,משמר הירדן,33.003483,35.598273
395,משמר הנגב,31.364795,34.71797
130,משמר העמק,32.610062,35.142674
729,משמר השבעה,32.01089,34.822338
194,משמר השרון,32.356304,34.904258
213,משמרות,32.486512,34.983894
425,משמרת,32.227585,34.922056
791,משען,31.656884,34.621608
1315,מתן,32.159376,34.973192
1184,מתת,33.041683,35.356697
3648,מתתיהו,31.659024,35.143501
4551,נאות גולן,32.787025,35.693173
1124,נאות הכיכר,30.933367,35.378127
408,נאות מרדכי,33.159784,35.595604
1197,נאות סמדר,30.049078,35.028107
524,נאעורה,32.614679,35.391134
396,נבטים,31.219759,34.88249
315,נגבה,32.121695,35.033576
3724,נגוהות,31.493076,34.983349
309,נהורה,31.62132,34.704498
80,נהלל,32.690806,35.196091
9100,נהריה,33.011351,35.094671
4304,נוב,32.832851,35.783576
55,נוגה,31.62569,34.695282
3573,נוה צוף,,
1366,נווה,,
590,נווה אור,32.589024,35.554546
4303,נווה אטיב,33.262019,35.740576
405,נווה אילן,31.807584,35.080924
296,נווה איתן,32.492303,35.53312
3725,נווה דניאל,31.676318,35.143294
1057,נווה זוהר,31.152067,35.364772
1314,נווה זיו,33.027398,35.184332
312,נווה ים,32.679768,34.931881
686,נווה ימין,32.171691,34.939379
858,נווה ירק,32.132728,34.92549
827,נווה מבטח,31.806766,34.741232
1071,נווה מיכאל,31.673048,35.006712
1259,נווה שלום,31.817426,34.978337
15,נועם,31.568566,34.788163
1333,נוף איילון,31.871214,34.991322
1061,נוף הגליל,,
3790,נופים,32.155457,35.099842
1284,נופית,32.763373,35.148317
257,נופך,31.836804,35.16975
3726,נוקדים,31.64533,35.244065
447,נורדיה,32.314655,34.896794
833,נורית,31.850638,35.277911
59,נחושה,31.628847,34.952734
844,נחל עוז,32.056529,34.842159
2045,נחלה,32.220169,35.159017
3767,נחליאל,31.973541,35.140432
449,נחלים,32.058596,34.913601
809,נחם,31.767105,35.003912
522,נחף,32.934674,35.316521
433,נחשולים,32.613089,34.922251
777,נחשון,31.831615,34.955988
705,נחשונים,32.063235,34.947013
1147,נטועה,33.065386,35.323407
4014,נטור,32.854067,35.752576
1369,נטע,,
174,נטעים,31.945687,34.775147
1254,נטף,31.831275,35.069581
523,ניין,32.630985,35.349401
3655,נילי,31.963414,35.047272
351,ניצן,31.737517,34.630806
1419,ניצן ב,,
1195,ניצנה קהילת חינוך,,
1280,ניצני סיני,30.903427,34.39668
851,ניצני עוז,32.306082,35.00328
359,ניצנים,31.717843,34.634638
808,ניר אליהו,32.197592,34.949377
553,ניר בנים,31.671176,34.755014
720,ניר גלים,31.825519,34.682542
256,ניר דוד תל עמל,,
11,ניר חן,31.608905,34.714284
165,ניר יפה,32.568981,35.244897
402,ניר יצחק,31.236039,34.356703
699,ניר ישראל,31.692155,34.638073
2047,ניר משה,31.477455,34.630087
69,ניר עוז,31.309695,34.402076
348,ניר עם,31.518458,34.580545
769,ניר עציון,32.699124,34.992527
2048,ניר עקיבא,31.469932,34.646167
331,ניר צבי,31.954402,34.86153
602,נירים,31.335729,34.394088
1236,נירית,32.146205,34.984824
825,נס הרים,31.744191,35.059408
1143,נס עמים,32.965464,35.12159
7200,נס ציונה,31.93211,34.801328
186,נעורים,32.377145,34.863027
3787,נעלה,31.962593,35.065977
3713,נעמה,31.9057,35.4561
158,נען,31.883207,34.859238
1041,נצאצרה שבט,31.259451,34.979229
1372,נצר חזני,31.661557,35.142352
435,נצר סרני,31.923483,34.823441
7300,נצרת,32.699634,35.303548
2500,נשר,32.764899,35.049192
3555,נתיב הגדוד,31.989411,35.443283
693,נתיב הלה,31.687183,34.982524
1242,נתיב העשרה,31.572406,34.539323
792,נתיב השיירה,32.991184,35.130746
246,נתיבות,31.423195,34.595255
7400,נתניה,32.321457,34.853197
525,סאגור,,
578,סאסא,33.028659,35.394571
587,סביון,32.045588,34.87658
2046,סגולה,31.669545,34.778428
942,סואעד חמרייה,,
526,סולם,32.6058194,35.3338778
3756,סוסיה,31.39105,35.11098
1238,סופה,31.793559,35.330785
7500,סחנין,,
1170,סייד שבט,31.281228,34.932309
1245,סלמה,32.893247,35.370501
3567,סלעית,32.174913,35.007232
1156,סמר,29.833967,35.022205
3777,סנסנה,31.361764,34.901004
419,סעד,31.470184,34.534358
1360,סעוה,,
454,סער,33.028688,35.109234
1176,ספיר,32.123197,35.025287
610,סתריה,31.889853,34.842096
4501,עגר,,
892,עבדון,33.048791,35.179129
376,עברון,32.991148,35.100033
794,עגור,31.890784,35.030635
1199,עדי,32.782352,35.173413
2035,עדנים,32.138797,34.90915
826,עוזה,31.593041,34.764526
528,עוזייר,32.790613,35.326883
737,עולש,32.331968,34.985323
666,עומר,31.264304,34.849866
810,עופר,32.621881,34.983473
3617,עופרה,31.955099,35.260325
32,עוצם,31.637664,34.705109
957,עוקבי בנו עוקבה,,
1149,עזר,31.736149,34.671449
837,עזריאל,32.26284,34.971134
711,עזריה,31.890494,34.911873
817,עזריקם,31.751693,34.694819
969,עטאוונה שבט,31.301881,34.92695
3658,עטרת,32.001206,35.176983
1175,עידן,30.80629,35.299948
530,עיילבון,32.837948,35.399997
156,עיינות,31.9158333,34.7680556
511,עילוט,32.717248,35.261484
687,עין איילה,32.629962,34.944297
546,עין אלאסד,,
273,עין גב,32.783392,35.640121
2042,עין גדי,31.45119,35.383573
436,עין דור,32.655467,35.416389
1240,עין הבשור,31.280894,34.443448
74,עין הוד,32.700291,34.982717
167,עין החורש,32.38587,34.939995
289,עין המפרץ,32.90258,35.093042
383,עין הנציב,32.470709,35.501974
367,עין העמק,32.629663,35.082248
270,עין השופט,32.59681,35.100447
676,עין השלושה,31.351721,34.403472
157,עין ורד,32.264466,34.930707
4503,עין זיוון,33.096449,35.796315
1320,עין חוד,32.69136,34.99906
89,עין חרוד איחוד,32.556805,35.392997
82,עין חרוד מאוחד,32.556805,35.392997
806,עין יהב,30.658756,35.239657
813,עין יעקב,33.009311,35.229026
426,עין כרמל,32.677911,34.953678
532,עין מאהל,32.724294,35.353371
521,עין נקובא,31.793909,35.119685
223,עין עירון,32.484426,35.01007
622,עין צורים,31.694935,34.718684
4502,עין קנייא,33.237362,35.731315
514,עין ראפה,31.790604,35.116516
139,עין שמר,32.461916,35.006732
880,עין שריד,32.2749,34.934182
1251,עין תמר,30.943593,35.374072
871,עינת,32.081947,34.937515
7600,עכו,32.933051,35.08268
1146,עלומים,31.453048,34.514713
3765,עלי,32.071176,35.26686
3727,עלי זהב,32.072226,35.064136
688,עלמה,33.051859,35.499637
3715,עלמון,31.855435,35.165027
1212,עמוקה,32.997668,35.524802
3824,עמיחי,,
779,עמינדב,31.751703,35.142429
385,עמיעד,32.930353,35.540523
318,עמיעוז,31.248462,34.413406
773,עמיקם,32.564625,35.020328
319,עמיר,33.178724,35.622083
3660,עמנואל,32.160687,35.136038
708,עמקה,32.977663,35.161809
3712,ענב,32.283593,35.125199
534,עספיא,32.720736,35.059089
7700,עפולה,32.610492,35.287924
917,עצמון שגב,,
531,עראבה,32.853704,35.337169
1246,עראמשה,33.0919444,35.2147222
1335,ערב אל נעים,,
2560,ערד,31.261446,35.214863
593,ערוגות,31.862291,35.17699
637,ערערה,32.496322,35.097294
1192,ערערהבנגב,,
591,עשרת,31.824912,34.747461
53,עתלית,32.690874,34.942915
3748,עתניאל,31.438811,35.028165
1151,פארן,30.362644,35.15515
3768,פדואל,32.062478,35.052621
750,פדויים,31.326274,34.612071
838,פדיה,31.857767,34.883775
1104,פוריה כפר עבודה,32.719845,35.545565
1105,פוריה נווה עובד,32.743762,35.538112
1313,פוריה עילית,32.732735,35.546164
537,פוריידיס,32.59735,34.951901
767,פורת,32.27708,34.948817
749,פטיש,31.308665,34.638278
1185,פלך,32.933669,35.233612
597,פלמחים,31.932704,34.706875
3723,פני חבר,31.487073,35.165101
3659,פסגות,31.899983,35.223925
535,פסוטה,33.047819,35.308829
2059,פעמי תשז,31.437966,34.692877
3615,פצאל,32.043491,35.443754
536,פקיעין בוקייעה,32.976208,35.335795
281,פקיעין חדשה,32.982194,35.323409
7800,פרדס חנהכרכור,,
171,פרדסיה,32.30501,34.911733
599,פרוד,32.933065,35.434319
2053,פרזון,32.545455,35.311116
1231,פרי גן,31.222013,34.355937
7900,פתח תקווה,32.08404,34.887764
839,פתחיה,31.866956,34.886872
413,צאלים,31.732211,35.18951
1180,צביה,32.889005,35.3306
1213,צבעון,33.027183,35.417507
465,צובה,31.784351,35.117953
1136,צוחר,31.237169,34.426445
3791,צופים,32.30391,34.96163
198,צופית,32.194879,34.920086
1150,צופר,30.559393,35.181475
1102,צוקי ים,32.360121,34.858543
1262,צוקים,30.49155,35.165444
1113,צור הדסה,31.719373,35.09696
1345,צור יצחק,,
276,צור משה,32.29891,34.913118
1148,צור נתן,32.239672,35.014022
774,צוריאל,33.006487,35.314792
1221,צורית,32.90235,35.249108
613,ציפורי,32.746747,35.276352
796,צלפון,31.805598,34.931798
636,צנדלה,32.522448,35.324422
594,צפריה,32.004314,34.854665
1079,צפרירים,31.659617,34.944327
8000,צפת,32.964647,35.495999
612,צרופה,32.647821,34.946457
567,צרעה,31.762652,34.966932
1234,קבועה שבט,31.225086,35.214756
334,קבוצת יבנה,31.813986,34.719104
3557,קדומים,32.212389,35.157389
195,קדימהצורן,,
4025,קדמת צבי,33.029484,35.697746
3781,קדר,31.754383,35.310734
615,קדרון,31.814141,34.79555
1211,קדרים,32.898885,35.471566
964,קודייראת אצאנעשבט,,
972,קוואעין שבט,31.323301,35.026032
766,קוממיות,31.662582,34.729302
1179,קורנית,32.844411,35.251885
1052,קטורה,29.970886,35.061356
1167,קיסריה,32.519015,34.904546
414,קלחים,31.449794,34.679094
3601,קליה,46.231018,15.2602936
638,קלנסווה,32.28579,34.981489
4024,קלע,33.1316,35.690392
1243,קציר,,
1347,קצר אסר,,
4100,קצרין,32.990997,35.689867
2620,קרית אונו,32.054862,34.858859
3611,קרית ארבע,31.529325,35.115626
6800,קרית אתא,32.809143,35.119774
9500,קרית ביאליק,32.832153,35.088408
2630,קרית גת,31.611147,34.768461
2300,קרית טבעון,32.71622,35.127485
9600,קרית ים,32.849275,35.06893
1137,קרית יערים,31.802773,35.099947
8200,קרית מוצקין,32.838201,35.079525
1034,קרית מלאכי,31.730201,34.746997
3746,קרית נטפים,32.117298,35.112117
78,קרית ענבים,31.809911,35.120843
469,קרית עקרון,31.857543,34.822259
2800,קרית שמונה,33.207932,35.570247
3640,קרני שומרון,32.171552,35.097464
4006,קשת,31.753699,35.311458
543,ראמה,32.937111,35.366985
1334,ראס אלעין,,
990,ראס עלי,32.77291,35.155514
2640,ראש העין,32.095837,34.952179
26,ראש פינה,32.970421,35.542661
3602,ראש צורים,31.66779,35.12529
8300,ראשון לציון,31.961544,34.80705
3795,רבבה,32.118709,35.129585
564,רבדים,31.773965,34.814808
354,רביבים,31.045194,34.721088
390,רגבה,32.977492,35.09913
444,רגבים,32.523439,35.033989
1161,רהט,31.394547,34.753935
2051,רווחה,31.648693,34.733683
2016,רוויה,32.448637,35.473119
362,רוחמה,31.497377,34.705167
539,רומאנה,32.788117,35.311213
997,רומת הייב,32.77759,35.305684
3619,רועי,32.247509,35.489481
3782,רותם,31.848773,35.154644
854,רחוב,32.451098,35.4896
8400,רחובות,31.892772,34.811274
3822,רחלים,,
540,ריחאניה,33.049921,35.487064
3568,ריחן,32.162832,35.071072
542,ריינה,32.719923,35.317656
3565,רימונים,31.935381,35.340496
616,רינתיה,32.044364,34.928479
922,רכסים,32.749264,35.099582
1069,רםאון,,
4702,רמות,31.821163,35.200708
206,רמות השבים,32.165089,34.881545
735,רמות מאיר,31.874443,34.85521
445,רמות מנשה,32.597041,35.057179
372,רמות נפתלי,33.102353,35.553314
8500,רמלה,31.931565,34.87294
8600,רמת גן,32.068423,34.824787
135,רמת דוד,32.6666667,35.1833333
184,רמת הכובש,32.218311,34.938291
335,רמת השופט,32.609355,35.094081
2650,רמת השרון,32.137792,34.84028
178,רמת יוחנן,32.793456,35.12221
122,רמת ישי,32.704028,35.166004
4701,רמת מגשימים,32.844065,35.806581
339,רמת צבי,32.591961,35.414499
460,רמת רזיאל,31.773572,35.074448
127,רמת רחל,31.740175,35.21955
789,רנן,31.338709,34.600359
713,רעים,31.386158,34.458825
8700,רעננה,32.18478,34.871328
1228,רקפת,31.564028,35.030585
247,רשפון,32.201855,34.824725
437,רשפים,32.481234,35.478792
1260,רתמים,31.054009,34.690903
324,שאר ישוב,33.229189,35.649255
1377,שבי דרום,,
282,שבי ציון,32.982078,35.083006
3571,שבי שומרון,32.263719,35.183446
913,שבלי אום אלגנם,,
1286,שגבשלום,,
721,שדה אילן,32.750509,35.422431
304,שדה אליהו,32.441881,35.513805
861,שדה אליעזר,33.04647,35.565251
885,שדה בוקר,30.873609,34.793099
36,שדה דוד,31.577475,34.683444
284,שדה ורבורג,32.20869,34.903252
293,שדה יואב,31.645722,34.676851
142,שדה יעקב,32.697559,35.141317
2008,שדה יצחק,32.404958,34.992169
18,שדה משה,31.610981,34.800428
259,שדה נחום,32.525067,35.480857
329,שדה נחמיה,33.188233,35.623072
1058,שדה ניצן,31.230034,34.418364
739,שדה עוזיהו,31.758436,34.678195
2049,שדה צבי,31.448746,34.713235
327,שדות ים,32.492612,34.893152
27,שדות מיכה,31.721352,34.920684
1223,שדי אברהם,31.211593,34.335694
2015,שדי חמד,32.159405,34.944513
2057,שדי תרומות,32.440897,35.484206
555,שדמה,31.833777,34.740091
306,שדמות דבורה,32.696244,35.436411
3578,שדמות מחולה,32.34773,35.530589
1031,שדרות,31.522693,34.595582
741,שואבה,31.799367,35.079005
761,שובה,31.449949,34.545498
394,שובל,31.413733,34.745816
1304,שוהם,32.005388,34.946585
614,שומרה,33.082469,35.281964
1265,שומריה,31.432153,34.884096
415,שוקדה,31.422096,34.524384
456,שורש,31.797487,35.065299
1235,שורשים,32.89265,35.258562
224,שושנת העמקים,32.354793,34.856816
527,שזור,32.933935,35.354524
7,שחר,31.618234,34.723747
1266,שחרות,29.904092,34.999174
865,שיבולים,31.396397,34.608146
658,שייח דנון,32.991763,35.147366
3641,שילה,38.2536555,15.7153122
1165,שילת,31.921172,35.014574
1160,שכניה,32.849185,35.246702
873,שלווה,31.563696,34.766833
439,שלוחות,32.472607,35.480489
812,שלומי,33.072608,35.145946
1364,שלומית,,
366,שמיר,33.166753,35.659951
3784,שמעה,31.387341,35.012701
432,שמרת,32.951479,35.094956
1337,שמשית,32.732526,35.24652
1287,שני,32.264139,34.866389
1132,שניר,32.235924,35.33027
538,שעב,32.889669,35.238766
4009,שעל,33.116529,35.718817
856,שעלבים,31.870234,34.984306
661,שער אפרים,32.290661,34.999449
264,שער הגולן,32.686918,35.604657
237,שער העמקים,32.72262,35.110603
921,שער מנשה,32.4497222,35.0147222
3826,שער שומרון,,
232,שפיים,32.216585,34.82241
692,שפיר,49.3204789,8.436217
846,שפר,32.944552,35.43785
8800,שפרעם,32.805764,35.169973
3649,שקד,32.198497,35.007088
1233,שקף,31.514889,34.937319
292,שרונה,32.726481,35.467727
1114,שריגים ליאון,,
126,שריד,32.663058,35.224757
398,שרשרת,31.404818,34.604398
1045,שתולה,33.085918,35.315629
763,שתולים,31.773686,34.684411
2062,תאשור,31.371708,34.643549
2061,תדהר,31.964281,35.048483
1172,תובל,32.928494,35.245677
3558,תומר,32.018586,35.439802
1083,תושיה,31.432893,34.541316
163,תימורים,31.716335,34.761357
10,תירוש,31.735552,35.180188
5000,תל אביב יפו,32.066157,34.777821
84,תל יוסף,32.556703,35.398915
287,תל יצחק,32.252744,34.87238
154,תל מונד,32.256607,34.918462
103,תל עדשים,32.657357,35.30248
719,תל קציר,32.706395,35.617862
1054,תל שבע,31.247568,34.861194
1283,תל תאומים,32.442536,35.496411
3719,תלם,31.563049,35.031241
1051,תלמי אליהו,31.229609,34.429116
2003,תלמי אלעזר,32.447227,34.974992
2050,תלמי בילו,31.438054,34.644824
1237,תלמי יוסף,31.199957,34.363752
727,תלמי יחיאל,31.75362,34.76431
744,תלמי יפה,31.616856,34.612483
814,תלמים,31.563415,34.671999
1244,תמרת,32.7038,35.22549
2002,תנובות,32.305862,34.962587
752,תעוז,31.801287,34.971973
709,תפרח,31.32447,34.679237
665,תקומה,31.448534,34.578086
3563,תקוע,31.652784,35.227518
970,תראבין אצאנע שבט,,
1346,תראבין אצאנעישוב,,
778,תרום,31.783305,34.98024
